% (lat/lon/height=WGS84/ellipsoidal,Q=1:fix,2:float,3:sbas,4:dgps,5:single,6:ppp,ns=# of satellites)
%  GPST                  latitude(deg) longitude(deg)  height(m)   Q  ns   sdn(m)   sde(m)   sdu(m)  sdne(m)  sdeu(m)  sdun(m) age(s)  ratio
2019/04/09 10:03:31.000   30.631091622  104.081949595   437.7160   2  12   2.3516   1.6723   4.7231   0.7800   2.1276   1.5537   1.03    0.0
2019/04/09 10:03:32.000   30.631119882  104.081946744   439.9885   2  15   1.4765   1.0228   2.9934   0.3394   1.2092   0.4213   1.03    0.0
2019/04/09 10:03:33.000   30.631122558  104.081946846   441.0745   2  15   1.1825   0.8179   2.4050   0.2528   0.9499   0.1033   1.03    0.0
2019/04/09 10:03:34.000   30.631128424  104.081946412   441.3216   2  16   0.9247   0.6955   2.0664   0.0816   0.8038  -0.2331   1.03    0.0
2019/04/09 10:03:35.000   30.631128562  104.081946846   441.8244   2  16   0.7911   0.6166   1.8387  -0.0785   0.7095  -0.2545   1.03    0.0
2019/04/09 10:03:36.000   30.631131371  104.081943577   441.5819   2  16   0.7021   0.5596   1.6713  -0.1019   0.6415  -0.2519   1.03    0.0
2019/04/09 10:03:37.000   30.631132223  104.081940923   441.2487   2  16   0.6372   0.5134   1.5376  -0.1079   0.5851  -0.2431   1.03    0.0
2019/04/09 10:03:38.000   30.631133162  104.081940058   441.3523   2  16   0.5871   0.4789   1.4325  -0.1084   0.5440  -0.2330   1.03    0.0
2019/04/09 10:03:39.000   30.631134340  104.081940686   441.7083   2  16   0.5461   0.4504   1.3443  -0.1062   0.5103  -0.2244   1.01    0.0
2019/04/09 10:03:40.000   30.631134954  104.081939623   441.6934   2  15   0.5127   0.4267   1.2686  -0.1035   0.4784  -0.2122   1.01    0.0
2019/04/09 10:03:41.000   30.631135643  104.081940148   441.9022   2  16   0.4860   0.4058   1.2043  -0.1021   0.4541  -0.2063   1.01    0.0
2019/04/09 10:03:42.000   30.631136240  104.081940564   442.1159   2  16   0.4630   0.3879   1.1476  -0.1003   0.4324  -0.2007   1.01    0.0
2019/04/09 10:03:43.000   30.631137011  104.081940844   442.4298   2  16   0.4429   0.3721   1.0967  -0.0982   0.4130  -0.1955   1.01    0.0
2019/04/09 10:03:44.000   30.631138364  104.081939748   442.1398   2  15   0.4231   0.3610   1.0601  -0.1019   0.4005  -0.1947   1.01    0.0
2019/04/09 10:03:45.000   30.631138371  104.081940713   442.4944   2  16   0.4062   0.3467   1.0188  -0.1028   0.3801  -0.1931   1.01    0.0
2019/04/09 10:03:46.000   30.631137577  104.081940838   442.6983   2  15   0.3962   0.3349   0.9828  -0.0991   0.3636  -0.1885   1.01    0.0
2019/04/09 10:03:47.000   30.631137006  104.081940900   442.8448   2  15   0.3866   0.3241   0.9499  -0.0960   0.3486  -0.1842   1.01    0.0
2019/04/09 10:03:48.000   30.631136613  104.081940741   442.9478   2  15   0.3776   0.3143   0.9197  -0.0930   0.3350  -0.1796   1.01    0.0
2019/04/09 10:03:49.000   30.631136099  104.081940596   443.0364   2  15   0.3693   0.3052   0.8950  -0.0913   0.3244  -0.1792   1.01    0.0
2019/04/09 10:03:50.000   30.631135631  104.081940739   443.1851   2  15   0.3618   0.2973   0.8729  -0.0893   0.3148  -0.1767   1.01    0.0
2019/04/09 10:03:51.000   30.631135298  104.081941079   443.3172   2  14   0.3547   0.2909   0.8523  -0.0880   0.3062  -0.1744   1.01    0.0
2019/04/09 10:03:52.000   30.631134905  104.081941150   443.4062   2  14   0.3479   0.2849   0.8331  -0.0865   0.2982  -0.1716   1.01    0.0
2019/04/09 10:03:53.000   30.631134696  104.081941184   443.4797   2  14   0.3414   0.2793   0.8149  -0.0849   0.2908  -0.1688   1.01    0.0
2019/04/09 10:03:54.000   30.631134383  104.081941032   443.5003   2  14   0.3351   0.2740   0.7978  -0.0835   0.2838  -0.1660   1.01    0.0
2019/04/09 10:03:55.000   30.631134191  104.081940626   443.5092   2  15   0.3290   0.2684   0.7806  -0.0817   0.2773  -0.1632   1.01    0.0
2019/04/09 10:03:56.000   30.631133924  104.081940402   443.6038   2  16   0.3231   0.2626   0.7646  -0.0794   0.2716  -0.1604   1.01    0.0
2019/04/09 10:03:57.000   30.631133684  104.081940231   443.6444   2  16   0.3174   0.2573   0.7494  -0.0772   0.2660  -0.1574   1.01    0.0
2019/04/09 10:03:58.000   30.631133256  104.081940269   443.6491   2  16   0.3119   0.2522   0.7348  -0.0751   0.2607  -0.1543   1.01    0.0
2019/04/09 10:03:59.000   30.631133024  104.081940375   443.6753   2  16   0.3065   0.2474   0.7209  -0.0730   0.2556  -0.1511   1.01    0.0
2019/04/09 10:04:00.000   30.631132699  104.081940620   443.7111   2  16   0.3012   0.2428   0.7075  -0.0710   0.2507  -0.1478   1.01    0.0
2019/04/09 10:04:01.000   30.631132855  104.081940938   443.6294   2  16   0.2961   0.2385   0.6946  -0.0690   0.2460  -0.1443   1.01    0.0
2019/04/09 10:04:02.000   30.631132595  104.081940947   443.5601   2  16   0.2911   0.2344   0.6822  -0.0669   0.2414  -0.1408   1.01    0.0
2019/04/09 10:04:03.000   30.631132456  104.081941041   443.6253   2  17   0.2840   0.2303   0.6702  -0.0665   0.2371  -0.1370   1.01    0.0
2019/04/09 10:04:04.000   30.631133006  104.081940371   443.5077   2  17   0.2776   0.2265   0.6585  -0.0659   0.2328  -0.1335   1.01    0.0
2019/04/09 10:04:05.000   30.631133860  104.081940286   443.4696   2  15   0.2717   0.2231   0.6483  -0.0645   0.2280  -0.1310   1.01    0.0
2019/04/09 10:04:06.000   30.631134127  104.081940710   443.3724   2  17   0.2657   0.2195   0.6374  -0.0639   0.2241  -0.1272   1.01    0.0
2019/04/09 10:04:07.000   30.631134417  104.081940816   443.2588   2  17   0.2600   0.2161   0.6269  -0.0630   0.2203  -0.1236   1.01    0.0
2019/04/09 10:04:08.000   30.631134856  104.081940962   443.2949   2  17   0.2546   0.2128   0.6166  -0.0620   0.2165  -0.1200   1.01    0.0
2019/04/09 10:04:09.000   30.631135207  104.081941086   443.2675   2  16   0.2494   0.2098   0.6068  -0.0609   0.2125  -0.1163   1.01    0.0
2019/04/09 10:04:10.000   30.631135134  104.081941224   443.2417   2  16   0.2443   0.2070   0.5971  -0.0598   0.2085  -0.1128   1.01    0.0
2019/04/09 10:04:11.000   30.631135690  104.081941153   443.1881   2  16   0.2395   0.2042   0.5876  -0.0587   0.2046  -0.1093   1.01    0.0
2019/04/09 10:04:12.000   30.631135316  104.081940081   443.3035   2  17   0.2348   0.2013   0.5779  -0.0575   0.2012  -0.1057   1.01    0.0
2019/04/09 10:04:13.000   30.631134877  104.081938959   443.5518   2  17   0.2302   0.1986   0.5686  -0.0564   0.1977  -0.1022   1.01    0.0
2019/04/09 10:04:14.000   30.631134808  104.081938242   443.7770   2  16   0.2263   0.1960   0.5603  -0.0546   0.1940  -0.1013   1.01    0.0
2019/04/09 10:04:15.000   30.631134899  104.081937271   443.7896   2  16   0.2226   0.1935   0.5520  -0.0530   0.1903  -0.0999   1.01    0.0
2019/04/09 10:04:16.000   30.631133715  104.081936372   443.9210   2  17   0.2183   0.1910   0.5429  -0.0519   0.1870  -0.0961   1.01    0.0
2019/04/09 10:04:17.000   30.631131924  104.081935854   444.0603   2  17   0.2142   0.1885   0.5340  -0.0508   0.1837  -0.0926   1.01    0.0
2019/04/09 10:04:18.000   30.631130814  104.081935751   444.0698   2  17   0.2102   0.1862   0.5252  -0.0496   0.1804  -0.0892   1.01    0.0
2019/04/09 10:04:19.000   30.631129724  104.081935859   444.0954   2  17   0.2064   0.1840   0.5166  -0.0484   0.1771  -0.0859   1.01    0.0
2019/04/09 10:04:20.000   30.631129641  104.081936097   444.0794   2  15   0.2034   0.1820   0.5111  -0.0469   0.1746  -0.0871   1.01    0.0
2019/04/09 10:04:21.000   30.631129830  104.081936369   444.0803   2  14   0.2005   0.1803   0.5069  -0.0451   0.1723  -0.0890   1.01    0.0
2019/04/09 10:04:22.000   30.631130458  104.081936568   444.0974   2  15   0.1975   0.1785   0.5023  -0.0438   0.1704  -0.0897   1.01    0.0
2019/04/09 10:04:23.000   30.631131156  104.081936721   444.0395   2  14   0.1946   0.1769   0.4985  -0.0425   0.1683  -0.0908   1.01    0.0
2019/04/09 10:04:24.000   30.631131408  104.081936655   444.0384   2  16   0.1913   0.1752   0.4937  -0.0419   0.1668  -0.0899   1.01    0.0
2019/04/09 10:04:25.000   30.631131853  104.081937056   443.9726   2  17   0.1883   0.1734   0.4892  -0.0411   0.1655  -0.0880   1.01    0.0
2019/04/09 10:04:26.000   30.631131388  104.081937690   443.9795   2  15   0.1854   0.1719   0.4854  -0.0401   0.1637  -0.0871   1.01    1.5
2019/04/09 10:04:27.000   30.631133041  104.081937830   443.8919   2  15   0.1827   0.1705   0.4817  -0.0386   0.1626  -0.0853   1.01    1.3
2019/04/09 10:04:28.000   30.631133123  104.081937934   443.9855   2  14   0.1806   0.1691   0.4780  -0.0364   0.1616  -0.0833   1.01    1.4
2019/04/09 10:04:29.000   30.631131781  104.081938187   443.9790   2  15   0.1778   0.1677   0.4744  -0.0355   0.1600  -0.0821   1.01    1.5
2019/04/09 10:04:30.000   30.631132223  104.081938658   443.9280   2  16   0.1751   0.1662   0.4706  -0.0346   0.1586  -0.0809   1.01    1.6
2019/04/09 10:04:31.000   30.631132093  104.081938827   443.9144   2  17   0.1724   0.1647   0.4667  -0.0340   0.1574  -0.0793   1.01    1.5
2019/04/09 10:04:32.000   30.631131836  104.081937023   443.5336   2  17   0.1698   0.1632   0.4629  -0.0333   0.1562  -0.0777   1.01    1.7
2019/04/09 10:04:33.000   30.631132740  104.081938894   443.8274   2  16   0.1675   0.1620   0.4594  -0.0325   0.1554  -0.0752   1.01    1.3
2019/04/09 10:04:34.000   30.631132817  104.081938834   443.8230   2  17   0.1652   0.1606   0.4557  -0.0321   0.1542  -0.0737   1.01    1.0
2019/04/09 10:04:35.000   30.631132952  104.081938665   443.7745   2  17   0.1629   0.1592   0.4520  -0.0317   0.1530  -0.0720   1.01    1.0
2019/04/09 10:04:36.000   30.631132950  104.081938662   443.7557   2  17   0.1606   0.1579   0.4483  -0.0312   0.1518  -0.0704   1.01    1.1
2019/04/09 10:04:37.000   30.631132925  104.081938736   443.7995   2  16   0.1585   0.1567   0.4446  -0.0310   0.1506  -0.0687   1.01    1.0
2019/04/09 10:04:38.000   30.631132799  104.081938913   443.8253   2  17   0.1564   0.1555   0.4410  -0.0306   0.1495  -0.0671   1.01    1.2
2019/04/09 10:04:39.000   30.631132674  104.081939110   443.8659   2  17   0.1543   0.1543   0.4374  -0.0301   0.1484  -0.0656   1.01    1.6
2019/04/09 10:04:40.000   30.631132406  104.081939017   443.9184   2  16   0.1522   0.1531   0.4339  -0.0294   0.1471  -0.0644   1.01    1.7
2019/04/09 10:04:41.000   30.631132680  104.081939369   443.8032   2  16   0.1502   0.1523   0.4307  -0.0292   0.1466  -0.0630   1.01    2.0
2019/04/09 10:04:42.000   30.631132139  104.081939191   443.6868   2  13   0.1485   0.1516   0.4282  -0.0280   0.1462  -0.0618   1.01    2.8
2019/04/09 10:04:43.000   30.631131788  104.081939258   443.6835   2  14   0.1468   0.1507   0.4255  -0.0262   0.1455  -0.0592   1.01    1.6
2019/04/09 10:04:44.000   30.631131612  104.081939271   443.6271   2  14   0.1450   0.1498   0.4227  -0.0250   0.1447  -0.0575   1.01    2.1
2019/04/09 10:04:45.000   30.631131434  104.081938646   443.6195   2  14   0.1435   0.1489   0.4200  -0.0234   0.1439  -0.0556   1.01    2.4
2019/04/09 10:04:46.000   30.631131283  104.081938834   443.6399   2  13   0.1421   0.1480   0.4174  -0.0216   0.1432  -0.0537   1.01    1.7
2019/04/09 10:04:47.000   30.631131387  104.081939049   443.6703   2  14   0.1403   0.1472   0.4148  -0.0206   0.1424  -0.0517   1.01    1.5
2019/04/09 10:04:48.000   30.631131154  104.081939033   443.6508   2  15   0.1385   0.1464   0.4122  -0.0195   0.1418  -0.0496   1.01    1.6
2019/04/09 10:04:49.000   30.631131173  104.081939102   443.6363   2  16   0.1367   0.1454   0.4095  -0.0193   0.1408  -0.0482   1.01    2.0
2019/04/09 10:04:50.000   30.631131365  104.081939208   443.6335   2  16   0.1350   0.1445   0.4068  -0.0189   0.1398  -0.0468   1.01    1.9
2019/04/09 10:04:51.000   30.631131506  104.081939476   443.5938   2  17   0.1333   0.1435   0.4040  -0.0186   0.1389  -0.0453   1.01    1.7
2019/04/09 10:04:52.000   30.631131608  104.081939786   443.5662   2  17   0.1317   0.1426   0.4012  -0.0182   0.1381  -0.0438   1.01    1.5
2019/04/09 10:04:53.000   30.631131374  104.081940105   443.4935   2  17   0.1300   0.1417   0.3985  -0.0178   0.1372  -0.0423   1.01    1.4
2019/04/09 10:04:54.000   30.631131075  104.081940327   443.4803   2  14   0.1288   0.1409   0.3961  -0.0157   0.1367  -0.0395   1.01    1.2
2019/04/09 10:04:55.000   30.631132384  104.081937052   443.4876   2  16   0.1272   0.1401   0.3937  -0.0151   0.1358  -0.0380   1.01    1.9
2019/04/09 10:04:56.000   30.631134201  104.081934427   443.5593   2  17   0.1256   0.1391   0.3911  -0.0149   0.1350  -0.0365   1.01    2.2
2019/04/09 10:04:57.000   30.631135682  104.081932584   443.4854   2  17   0.1241   0.1383   0.3886  -0.0145   0.1342  -0.0348   1.01    1.9
2019/04/09 10:04:58.000   30.631137057  104.081932177   443.4799   2  17   0.1226   0.1374   0.3861  -0.0140   0.1334  -0.0331   1.01    1.5
2019/04/09 10:04:59.000   30.631137083  104.081931695   443.4764   2  17   0.1211   0.1366   0.3836  -0.0135   0.1327  -0.0313   1.01    1.4
2019/04/09 10:05:00.000   30.631137055  104.081931961   443.5181   2  17   0.1196   0.1358   0.3811  -0.0129   0.1319  -0.0295   1.01    1.9
2019/04/09 10:05:01.000   30.631137128  104.081932226   443.5422   2  17   0.1182   0.1350   0.3786  -0.0123   0.1312  -0.0276   1.01    2.1
2019/04/09 10:05:02.000   30.631137011  104.081932451   443.5486   2  17   0.1168   0.1342   0.3761  -0.0118   0.1304  -0.0257   1.01    2.7
2019/04/09 10:05:03.000   30.631133564  104.081941060   444.6474   1  17   0.0054   0.0044   0.0134  -0.0018   0.0047  -0.0035   1.01    3.2
2019/04/09 10:05:04.000   30.631133817  104.081941885   444.6388   1  17   0.0053   0.0044   0.0134  -0.0018   0.0047  -0.0035   1.01    3.7
2019/04/09 10:05:05.000   30.631135088  104.081943470   444.6943   1  17   0.0053   0.0044   0.0134  -0.0018   0.0047  -0.0035   1.01    4.2
2019/04/09 10:05:06.000   30.631135377  104.081943823   444.6898   1  17   0.0053   0.0044   0.0134  -0.0018   0.0047  -0.0035   1.01    4.8
2019/04/09 10:05:07.000   30.631135342  104.081944245   444.6655   1  17   0.0051   0.0044   0.0133  -0.0019   0.0048  -0.0034   1.01    3.1
2019/04/09 10:05:08.000   30.631133477  104.081943546   444.6556   1  17   0.0051   0.0044   0.0133  -0.0019   0.0048  -0.0034   1.01    5.0
2019/04/09 10:05:09.000   30.631131414  104.081943119   444.6948   1  17   0.0051   0.0044   0.0133  -0.0019   0.0048  -0.0034   1.01    7.6
2019/04/09 10:05:10.000   30.631129081  104.081940712   444.6269   1  17   0.0053   0.0044   0.0137  -0.0017   0.0046  -0.0039   1.01    7.9
2019/04/09 10:05:11.000   30.631124180  104.081940103   444.7006   1  16   0.0053   0.0044   0.0137  -0.0017   0.0046  -0.0039   1.01    8.7
2019/04/09 10:05:12.000   30.631119461  104.081939928   444.7069   1  17   0.0053   0.0044   0.0137  -0.0017   0.0046  -0.0039   1.01    9.4
2019/04/09 10:05:13.000   30.631114043  104.081940062   444.7654   1  17   0.0052   0.0044   0.0135  -0.0019   0.0047  -0.0037   1.01    4.4
2019/04/09 10:05:14.000   30.631110562  104.081940124   444.7269   1  17   0.0052   0.0044   0.0134  -0.0019   0.0047  -0.0036   1.01    7.7
2019/04/09 10:05:15.000   30.631104968  104.081937981   444.6509   1  17   0.0052   0.0044   0.0134  -0.0019   0.0047  -0.0035   1.01   10.7
2019/04/09 10:05:16.000   30.631098406  104.081936840   444.6617   1  17   0.0052   0.0044   0.0134  -0.0019   0.0047  -0.0035   1.01   11.2
2019/04/09 10:05:17.000   30.631092701  104.081935132   444.6491   1  16   0.0065   0.0044   0.0160  -0.0012   0.0041  -0.0068   1.01    8.6
2019/04/09 10:05:18.000   30.631085313  104.081932709   444.6740   1  16   0.0059   0.0044   0.0149  -0.0015   0.0044  -0.0056   1.01    8.9
2019/04/09 10:05:19.000   30.631079269  104.081930605   444.6290   1  16   0.0057   0.0044   0.0145  -0.0016   0.0044  -0.0051   1.01    9.7
2019/04/09 10:05:20.000   30.631075013  104.081926992   444.6568   1  17   0.0056   0.0044   0.0143  -0.0016   0.0045  -0.0048   1.01   10.4
2019/04/09 10:05:21.000   30.631070026  104.081923160   444.6111   1  16   0.0055   0.0044   0.0142  -0.0017   0.0045  -0.0046   1.01   11.2
2019/04/09 10:05:22.000   30.631062349  104.081919868   444.6844   1  16   0.0055   0.0044   0.0141  -0.0017   0.0045  -0.0045   1.01   11.9
2019/04/09 10:05:23.000   30.631054230  104.081916752   444.7081   1  16   0.0055   0.0044   0.0140  -0.0017   0.0045  -0.0044   1.01   39.6
2019/04/09 10:05:24.000   30.631046239  104.081913532   444.6771   1  16   0.0065   0.0044   0.0160  -0.0012   0.0041  -0.0068   1.01   50.5
2019/04/09 10:05:25.000   30.631037395  104.081909863   444.7394   1  17   0.0059   0.0044   0.0149  -0.0015   0.0044  -0.0056   1.01   58.1
2019/04/09 10:05:26.000   30.631028535  104.081906652   444.7618   1  16   0.0057   0.0044   0.0145  -0.0016   0.0044  -0.0051   1.01   56.5
2019/04/09 10:05:27.000   30.631020136  104.081902190   444.7102   1  15   0.0057   0.0052   0.0160  -0.0022   0.0063  -0.0054   1.01   66.9
2019/04/09 10:05:28.000   30.631011681  104.081898364   444.6990   1  15   0.0056   0.0052   0.0159  -0.0022   0.0063  -0.0052   1.01   69.3
2019/04/09 10:05:29.000   30.631003721  104.081894337   444.7037   1  16   0.0056   0.0052   0.0158  -0.0022   0.0063  -0.0051   1.01   73.9
2019/04/09 10:05:30.000   30.630995792  104.081890009   444.7078   1  15   0.0055   0.0052   0.0157  -0.0022   0.0063  -0.0050   1.01   73.2
2019/04/09 10:05:31.000   30.630987969  104.081887042   444.6851   1  15   0.0055   0.0052   0.0157  -0.0022   0.0063  -0.0050   1.01   74.5
2019/04/09 10:05:32.000   30.630979991  104.081884602   444.7157   1  15   0.0055   0.0052   0.0156  -0.0022   0.0063  -0.0049   1.01   77.9
2019/04/09 10:05:33.000   30.630972747  104.081881037   444.6740   1  15   0.0053   0.0052   0.0153  -0.0022   0.0064  -0.0045   1.01    3.5
2019/04/09 10:05:34.000   30.630964860  104.081877808   444.6532   1  15   0.0066   0.0052   0.0180  -0.0022   0.0063  -0.0075   1.01   77.7
2019/04/09 10:05:35.000   30.630956255  104.081875853   444.6640   1  15   0.0065   0.0049   0.0164  -0.0018   0.0051  -0.0071   1.01   74.7
2019/04/09 10:05:36.000   30.630949589  104.081873459   444.6538   1  15   0.0065   0.0048   0.0158  -0.0016   0.0046  -0.0069   1.01   75.6
2019/04/09 10:05:37.000   30.630943873  104.081872266   444.6386   1  15   0.0065   0.0047   0.0155  -0.0016   0.0044  -0.0068   1.01   76.4
2019/04/09 10:05:38.000   30.630938399  104.081871559   444.6403   1  17   0.0065   0.0047   0.0153  -0.0015   0.0042  -0.0068   1.01   76.0
2019/04/09 10:05:39.000   30.630932039  104.081867014   444.6409   1  15   0.0065   0.0046   0.0152  -0.0015   0.0041  -0.0068   1.01   75.8
2019/04/09 10:05:40.000   30.630924904  104.081861225   444.6542   1  16   0.0065   0.0045   0.0145  -0.0013   0.0035  -0.0066   1.01    3.4
2019/04/09 10:05:41.000   30.630917193  104.081856896   444.7425   1  17   0.0059   0.0045   0.0137  -0.0017   0.0039  -0.0055   1.01    5.7
2019/04/09 10:05:42.000   30.630909057  104.081852102   444.6308   1  16   0.0057   0.0045   0.0133  -0.0018   0.0040  -0.0051   1.01    7.9
2019/04/09 10:05:43.000   30.630899506  104.081846801   444.6494   1  17   0.0056   0.0045   0.0132  -0.0019   0.0040  -0.0049   1.01   10.3
2019/04/09 10:05:44.000   30.630890306  104.081841306   444.6223   1  17   0.0055   0.0045   0.0129  -0.0020   0.0041  -0.0045   1.01   12.6
2019/04/09 10:05:45.000   30.630882613  104.081835198   444.6251   1  16   0.0054   0.0046   0.0132  -0.0019   0.0037  -0.0045   1.01   16.1
2019/04/09 10:05:46.000   30.630871927  104.081834149   444.6424   1  16   0.0056   0.0053   0.0163  -0.0021   0.0060  -0.0053   1.01  104.3
2019/04/09 10:05:47.000   30.630861681  104.081834553   444.6218   1  16   0.0055   0.0049   0.0149  -0.0021   0.0051  -0.0050   1.01  104.5
2019/04/09 10:05:48.000   30.630854743  104.081832165   444.6499   1  16   0.0055   0.0048   0.0143  -0.0020   0.0048  -0.0049   1.01   98.8
2019/04/09 10:05:49.000   30.630846651  104.081827068   444.6592   1  16   0.0055   0.0048   0.0143  -0.0020   0.0044  -0.0049   1.01  103.0
2019/04/09 10:05:50.000   30.630838076  104.081821331   444.7094   1  17   0.0055   0.0047   0.0142  -0.0020   0.0042  -0.0049   1.01  115.4
2019/04/09 10:05:51.000   30.630828389  104.081816720   444.7676   1  17   0.0065   0.0047   0.0153   0.0012   0.0016  -0.0069   1.01  132.8
2019/04/09 10:05:52.000   30.630819195  104.081811519   444.8116   1  17   0.0059   0.0045   0.0139  -0.0011   0.0026  -0.0055   1.01  170.1
2019/04/09 10:05:53.000   30.630809105  104.081806421   444.8226   1  16   0.0058   0.0047   0.0147  -0.0013   0.0038  -0.0053   1.01  272.0
2019/04/09 10:05:54.000   30.630798409  104.081801058   444.8784   1  17   0.0061   0.0047   0.0143   0.0011   0.0023  -0.0057   1.01  320.6
2019/04/09 10:05:55.000   30.630787934  104.081796177   444.8974   1  18   0.0059   0.0043   0.0127   0.0004   0.0012  -0.0051   1.01    7.1
2019/04/09 10:05:56.000   30.630778534  104.081790227   444.8738   1  17   0.0059   0.0046   0.0123  -0.0019   0.0022  -0.0048   1.01    3.4
2019/04/09 10:05:57.000   30.630768796  104.081784527   444.8469   2  18   0.0091   0.0074   0.0242  -0.0042   0.0097  -0.0100   1.01    1.8
2019/04/09 10:05:58.000   30.630759111  104.081779209   444.8198   2  16   0.0092   0.0077   0.0248  -0.0045   0.0103  -0.0103   1.01    1.1
2019/04/09 10:05:59.000   30.630748924  104.081774275   444.7951   2  19   0.0091   0.0075   0.0244  -0.0044   0.0100  -0.0100   1.01    2.1
2019/04/09 10:06:00.000   30.630738667  104.081769581   444.7539   2  19   0.0090   0.0072   0.0241  -0.0042   0.0098  -0.0099   1.01    2.8
2019/04/09 10:06:01.000   30.630729116  104.081765727   444.7251   2  19   0.0091   0.0071   0.0239  -0.0041   0.0097  -0.0099   1.01    2.1
2019/04/09 10:06:02.000   30.630722908  104.081763894   444.6302   1  17   0.0063   0.0042   0.0126   0.0013  -0.0022  -0.0056   1.01    3.4
2019/04/09 10:06:03.000   30.630724249  104.081764938   444.6473   1  19   0.0063   0.0041   0.0125   0.0013  -0.0022  -0.0056   1.01    4.8
2019/04/09 10:06:04.000   30.630724242  104.081765028   444.6833   1  19   0.0057   0.0040   0.0117  -0.0007  -0.0009  -0.0045   1.01    6.3
2019/04/09 10:06:05.000   30.630720643  104.081762152   444.6888   1  19   0.0055   0.0039   0.0114  -0.0011   0.0008  -0.0040   1.01    7.7
2019/04/09 10:06:06.000   30.630714025  104.081759007   444.7000   1  18   0.0055   0.0039   0.0114  -0.0010   0.0002  -0.0041   1.01    8.9
2019/04/09 10:06:07.000   30.630706274  104.081755205   444.6996   1  18   0.0056   0.0042   0.0118  -0.0014  -0.0020  -0.0040   1.01   10.5
2019/04/09 10:06:08.000   30.630698489  104.081750812   444.6861   1  18   0.0055   0.0040   0.0115  -0.0013  -0.0012  -0.0039   1.01   12.6
2019/04/09 10:06:09.000   30.630689759  104.081746550   444.6603   1  18   0.0063   0.0041   0.0126   0.0014  -0.0026  -0.0056   1.01   14.0
2019/04/09 10:06:10.000   30.630680424  104.081742856   444.6599   1  18   0.0058   0.0040   0.0119   0.0004  -0.0017  -0.0047   1.01   15.9
2019/04/09 10:06:11.000   30.630671035  104.081739085   444.6396   1  18   0.0056   0.0038   0.0114  -0.0008   0.0005  -0.0041   1.01    6.1
2019/04/09 10:06:12.000   30.630661955  104.081734665   444.6442   1  18   0.0055   0.0038   0.0113  -0.0010   0.0009  -0.0039   1.01    7.2
2019/04/09 10:06:13.000   30.630652653  104.081729858   444.6629   1  19   0.0052   0.0038   0.0109  -0.0014   0.0015  -0.0033   1.01    7.6
2019/04/09 10:06:14.000   30.630643250  104.081725383   444.6492   1  18   0.0052   0.0038   0.0109  -0.0014   0.0015  -0.0033   1.01    9.2
2019/04/09 10:06:15.000   30.630634105  104.081721711   444.6421   1  18   0.0052   0.0038   0.0109  -0.0014   0.0015  -0.0033   1.01   10.0
2019/04/09 10:06:16.000   30.630624325  104.081717908   444.6699   1  18   0.0052   0.0038   0.0109  -0.0014   0.0015  -0.0033   1.01   11.1
2019/04/09 10:06:17.000   30.630614891  104.081713116   444.6821   1  18   0.0052   0.0038   0.0109  -0.0014   0.0015  -0.0033   1.01   11.9
2019/04/09 10:06:18.000   30.630605363  104.081708877   444.6592   1  18   0.0052   0.0038   0.0109  -0.0014   0.0015  -0.0033   1.01   12.5
2019/04/09 10:06:19.000   30.630595902  104.081704426   444.6432   1  18   0.0053   0.0041   0.0112  -0.0016   0.0025  -0.0035   1.01   12.9
2019/04/09 10:06:20.000   30.630586468  104.081700322   444.6363   1  18   0.0052   0.0039   0.0110  -0.0015   0.0020  -0.0034   1.01   13.9
2019/04/09 10:06:21.000   30.630577080  104.081696548   444.6491   1  17   0.0062   0.0039   0.0122   0.0014  -0.0021  -0.0054   1.01    5.7
2019/04/09 10:06:22.000   30.630568149  104.081693025   444.6378   1  19   0.0062   0.0039   0.0122   0.0014  -0.0021  -0.0054   1.01    7.3
2019/04/09 10:06:23.000   30.630559967  104.081688851   444.6311   1  18   0.0057   0.0038   0.0116   0.0002  -0.0011  -0.0045   1.01    9.0
2019/04/09 10:06:24.000   30.630551048  104.081684363   444.6493   1  18   0.0056   0.0038   0.0113  -0.0008  -0.0003  -0.0041   1.01   10.4
2019/04/09 10:06:25.000   30.630541769  104.081679699   444.6637   1  18   0.0055   0.0038   0.0112  -0.0009   0.0007  -0.0039   1.01   11.6
2019/04/09 10:06:26.000   30.630532242  104.081675456   444.6514   1  17   0.0062   0.0039   0.0122   0.0014  -0.0021  -0.0054   1.01   12.7
2019/04/09 10:06:27.000   30.630523091  104.081671022   444.6390   1  17   0.0062   0.0039   0.0122   0.0014  -0.0021  -0.0054   1.01   13.8
2019/04/09 10:06:28.000   30.630513370  104.081666859   444.6392   1  17   0.0062   0.0039   0.0122   0.0014  -0.0021  -0.0054   1.01   15.3
2019/04/09 10:06:29.000   30.630503797  104.081662379   444.6373   1  17   0.0062   0.0039   0.0122   0.0014  -0.0021  -0.0054   1.01   16.9
2019/04/09 10:06:30.000   30.630494186  104.081658502   444.6743   1  18   0.0062   0.0039   0.0122   0.0014  -0.0021  -0.0054   1.01   18.3
2019/04/09 10:06:31.000   30.630484696  104.081654510   444.6552   1  18   0.0057   0.0038   0.0116   0.0002  -0.0010  -0.0045   1.01   19.1
2019/04/09 10:06:32.000   30.630475463  104.081650244   444.6597   1  18   0.0056   0.0038   0.0113  -0.0008  -0.0002  -0.0041   1.01   20.0
2019/04/09 10:06:33.000   30.630465899  104.081646232   444.6723   1  19   0.0062   0.0039   0.0122   0.0014  -0.0020  -0.0054   1.01   21.0
2019/04/09 10:06:34.000   30.630456481  104.081642289   444.7021   1  19   0.0057   0.0038   0.0114  -0.0006  -0.0005  -0.0043   1.01   21.8
2019/04/09 10:06:35.000   30.630446602  104.081638885   444.6930   1  18   0.0062   0.0039   0.0122   0.0014  -0.0020  -0.0054   1.01   22.7
2019/04/09 10:06:36.000   30.630436796  104.081635226   444.6787   1  18   0.0057   0.0038   0.0116   0.0002  -0.0010  -0.0045   1.01   23.6
2019/04/09 10:06:37.000   30.630427202  104.081631778   444.6800   1  18   0.0056   0.0038   0.0113  -0.0008  -0.0002  -0.0041   1.01   24.7
2019/04/09 10:06:38.000   30.630417353  104.081628951   444.6930   1  18   0.0055   0.0038   0.0112  -0.0009   0.0007  -0.0039   1.01   25.5
2019/04/09 10:06:39.000   30.630406884  104.081626637   444.7210   1  18   0.0054   0.0038   0.0111  -0.0010   0.0009  -0.0038   1.01   25.8
2019/04/09 10:06:40.000   30.630396253  104.081624062   444.7316   1  19   0.0054   0.0038   0.0111  -0.0011   0.0010  -0.0037   1.01   26.6
2019/04/09 10:06:41.000   30.630385472  104.081621513   444.6946   1  18   0.0054   0.0038   0.0111  -0.0011   0.0011  -0.0037   1.01   27.6
2019/04/09 10:06:42.000   30.630375021  104.081618891   444.6909   1  19   0.0053   0.0037   0.0109  -0.0013   0.0015  -0.0034   1.01   28.1
2019/04/09 10:06:43.000   30.630364556  104.081618042   444.6858   1  19   0.0053   0.0037   0.0108  -0.0014   0.0016  -0.0033   1.01   28.7
2019/04/09 10:06:44.000   30.630354242  104.081617704   444.7379   1  19   0.0052   0.0037   0.0108  -0.0014   0.0017  -0.0032   1.01   29.7
2019/04/09 10:06:45.000   30.630344129  104.081616884   444.7253   1  19   0.0059   0.0038   0.0116   0.0005  -0.0010  -0.0047   1.01   31.1
2019/04/09 10:06:46.000   30.630334021  104.081615567   444.7202   1  19   0.0055   0.0038   0.0111  -0.0010   0.0011  -0.0039   1.01   31.8
2019/04/09 10:06:47.000   30.630324127  104.081614447   444.7062   1  19   0.0051   0.0037   0.0106  -0.0016   0.0019  -0.0028   1.01    3.9
2019/04/09 10:06:48.000   30.630313958  104.081615261   444.6983   1  19   0.0051   0.0037   0.0106  -0.0016   0.0019  -0.0028   1.01    4.8
2019/04/09 10:06:49.000   30.630303735  104.081617076   444.6906   1  19   0.0051   0.0037   0.0106  -0.0016   0.0019  -0.0028   1.01    5.9
2019/04/09 10:06:50.000   30.630293491  104.081618874   444.6868   1  19   0.0051   0.0037   0.0106  -0.0016   0.0019  -0.0028   1.01    7.0
2019/04/09 10:06:51.000   30.630283005  104.081620386   444.6574   1  19   0.0051   0.0037   0.0106  -0.0016   0.0019  -0.0028   1.01    8.1
2019/04/09 10:06:52.000   30.630272428  104.081622099   444.6408   1  19   0.0051   0.0037   0.0106  -0.0016   0.0019  -0.0028   1.01    9.1
2019/04/09 10:06:53.000   30.630261859  104.081624458   444.6726   1  19   0.0051   0.0037   0.0106  -0.0016   0.0019  -0.0028   1.01   10.4
2019/04/09 10:06:54.000   30.630251273  104.081625842   444.6770   1  19   0.0051   0.0037   0.0106  -0.0016   0.0019  -0.0028   1.01   11.6
2019/04/09 10:06:55.000   30.630240279  104.081627899   444.6656   1  19   0.0051   0.0037   0.0106  -0.0016   0.0019  -0.0028   1.01   13.1
2019/04/09 10:06:56.000   30.630229386  104.081630788   444.6622   1  19   0.0051   0.0037   0.0106  -0.0016   0.0019  -0.0028   1.01   14.3
2019/04/09 10:06:57.000   30.630218651  104.081634852   444.6671   1  19   0.0051   0.0037   0.0106  -0.0016   0.0019  -0.0028   1.01   15.5
2019/04/09 10:06:58.000   30.630208003  104.081638788   444.6694   1  19   0.0051   0.0037   0.0106  -0.0016   0.0019  -0.0028   1.01   16.8
2019/04/09 10:06:59.000   30.630197566  104.081642345   444.6815   1  19   0.0051   0.0037   0.0106  -0.0016   0.0019  -0.0028   1.01   18.2
2019/04/09 10:07:00.000   30.630187102  104.081646819   444.6815   1  19   0.0051   0.0037   0.0106  -0.0016   0.0019  -0.0028   1.01   19.4
2019/04/09 10:07:01.000   30.630176723  104.081651702   444.6559   1  19   0.0052   0.0037   0.0109  -0.0013   0.0014  -0.0033   1.01   20.8
2019/04/09 10:07:02.000   30.630166686  104.081656975   444.6491   1  19   0.0052   0.0037   0.0107  -0.0015   0.0017  -0.0030   1.01   22.1
2019/04/09 10:07:03.000   30.630156767  104.081661762   444.6399   1  19   0.0051   0.0037   0.0105  -0.0016   0.0020  -0.0028   1.01    5.0
2019/04/09 10:07:04.000   30.630146909  104.081666962   444.6616   1  19   0.0051   0.0037   0.0105  -0.0016   0.0020  -0.0028   1.01    6.5
2019/04/09 10:07:05.000   30.630137065  104.081672453   444.6643   1  19   0.0051   0.0037   0.0105  -0.0016   0.0020  -0.0028   1.01    7.9
2019/04/09 10:07:06.000   30.630127319  104.081678183   444.6757   1  19   0.0051   0.0037   0.0105  -0.0016   0.0020  -0.0027   1.01    9.4
2019/04/09 10:07:07.000   30.630118000  104.081685305   444.6555   1  19   0.0051   0.0037   0.0105  -0.0016   0.0020  -0.0027   1.01   10.8
2019/04/09 10:07:08.000   30.630109083  104.081692440   444.6671   1  19   0.0051   0.0037   0.0105  -0.0016   0.0020  -0.0027   1.01   12.2
2019/04/09 10:07:09.000   30.630100122  104.081699454   444.6825   1  19   0.0051   0.0037   0.0105  -0.0016   0.0020  -0.0027   1.01   13.8
2019/04/09 10:07:10.000   30.630091058  104.081705835   444.7163   1  19   0.0051   0.0037   0.0105  -0.0016   0.0020  -0.0027   1.01   15.3
2019/04/09 10:07:11.000   30.630082342  104.081713142   444.6999   1  19   0.0051   0.0037   0.0105  -0.0016   0.0020  -0.0027   1.01   16.6
2019/04/09 10:07:12.000   30.630073346  104.081720796   444.7460   1  19   0.0051   0.0037   0.0105  -0.0016   0.0020  -0.0027   1.01   18.2
2019/04/09 10:07:13.000   30.630064503  104.081728034   444.6757   1  19   0.0051   0.0037   0.0105  -0.0016   0.0020  -0.0027   1.01   19.6
2019/04/09 10:07:14.000   30.630057293  104.081737249   444.6370   1  19   0.0051   0.0037   0.0105  -0.0016   0.0020  -0.0027   1.01   21.3
2019/04/09 10:07:15.000   30.630049523  104.081745920   444.6466   1  19   0.0051   0.0037   0.0105  -0.0016   0.0020  -0.0027   1.01   22.6
2019/04/09 10:07:16.000   30.630041462  104.081754881   444.6760   1  19   0.0051   0.0037   0.0105  -0.0016   0.0020  -0.0027   1.01   24.1
2019/04/09 10:07:17.000   30.630033274  104.081764056   444.6842   1  19   0.0051   0.0037   0.0105  -0.0016   0.0020  -0.0027   1.01   25.6
2019/04/09 10:07:18.000   30.630025286  104.081773556   444.6791   1  19   0.0051   0.0037   0.0105  -0.0016   0.0020  -0.0027   1.01   27.3
2019/04/09 10:07:19.000   30.630017554  104.081782595   444.6517   1  19   0.0051   0.0037   0.0105  -0.0016   0.0020  -0.0027   1.01   28.9
2019/04/09 10:07:20.000   30.630010199  104.081792575   444.6443   1  19   0.0051   0.0037   0.0105  -0.0016   0.0020  -0.0027   1.01   30.2
2019/04/09 10:07:21.000   30.630002908  104.081802831   444.6368   1  19   0.0051   0.0037   0.0105  -0.0016   0.0020  -0.0027   1.01   31.4
2019/04/09 10:07:22.000   30.629995584  104.081813023   444.6546   1  19   0.0051   0.0037   0.0105  -0.0016   0.0020  -0.0027   1.01   32.5
2019/04/09 10:07:23.000   30.629988376  104.081823213   444.6858   1  18   0.0058   0.0038   0.0115  -0.0004  -0.0003  -0.0045   1.01   38.6
2019/04/09 10:07:24.000   30.629981573  104.081833938   444.6672   1  18   0.0062   0.0039   0.0122   0.0014  -0.0020  -0.0054   1.01  100.7
2019/04/09 10:07:25.000   30.629975218  104.081844869   444.6610   1  19   0.0058   0.0038   0.0115   0.0003  -0.0010  -0.0045   1.01  100.6
2019/04/09 10:07:26.000   30.629969793  104.081855789   444.6369   1  19   0.0055   0.0038   0.0112  -0.0010   0.0010  -0.0039   1.01   98.9
2019/04/09 10:07:27.000   30.629964587  104.081866989   444.6476   1  19   0.0054   0.0037   0.0110  -0.0012   0.0013  -0.0036   1.01   99.8
2019/04/09 10:07:28.000   30.629960060  104.081879139   444.6574   1  18   0.0069   0.0038   0.0110   0.0007   0.0012  -0.0042   1.01  111.1
2019/04/09 10:07:29.000   30.629955264  104.081890912   444.6797   1  18   0.0073   0.0038   0.0109   0.0015   0.0015  -0.0040   1.01  115.0
2019/04/09 10:07:30.000   30.629950285  104.081902913   444.6790   1  17   0.0072   0.0038   0.0109   0.0014   0.0015  -0.0038   1.01  117.8
2019/04/09 10:07:31.000   30.629944770  104.081915101   444.6973   1  18   0.0099   0.0042   0.0130   0.0038  -0.0032  -0.0079   1.01  119.2
2019/04/09 10:07:32.000   30.629939795  104.081927459   444.6722   1  18   0.0084   0.0042   0.0126   0.0028   0.0016  -0.0057   1.01  123.9
2019/04/09 10:07:33.000   30.629935271  104.081939725   444.6595   1  16   0.0077   0.0041   0.0120   0.0022   0.0029  -0.0037   1.01    5.6
2019/04/09 10:07:34.000   30.629931275  104.081952105   444.6551   1  16   0.0075   0.0041   0.0119   0.0020   0.0030  -0.0033   1.01    7.3
2019/04/09 10:07:35.000   30.629928146  104.081965121   444.6735   1  17   0.0074   0.0041   0.0118   0.0019   0.0031  -0.0030   1.01    9.1
2019/04/09 10:07:36.000   30.629924841  104.081977968   444.6726   1  18   0.0073   0.0041   0.0117   0.0018   0.0031  -0.0029   1.01   10.9
2019/04/09 10:07:37.000   30.629921964  104.081990548   444.6483   1  18   0.0065   0.0046   0.0122   0.0016   0.0041  -0.0026   1.01   14.7
2019/04/09 10:07:38.000   30.629919723  104.082003700   444.6742   1  18   0.0063   0.0044   0.0120   0.0015   0.0038  -0.0023   1.01   16.5
2019/04/09 10:07:39.000   30.629918315  104.082016954   444.6725   1  17   0.0069   0.0050   0.0158   0.0009   0.0056  -0.0057   1.01   18.5
2019/04/09 10:07:40.000   30.629916834  104.082030110   444.6529   1  17   0.0064   0.0048   0.0148  -0.0004   0.0055  -0.0047   1.01   20.6
2019/04/09 10:07:41.000   30.629915326  104.082042871   444.6401   1  17   0.0055   0.0047   0.0138  -0.0013   0.0055  -0.0028   1.01    5.5
2019/04/09 10:07:42.000   30.629913816  104.082055879   444.6354   1  17   0.0055   0.0047   0.0138  -0.0014   0.0054  -0.0029   1.01    6.7
2019/04/09 10:07:43.000   30.629912314  104.082069397   444.6490   1  17   0.0066   0.0047   0.0137  -0.0005   0.0053  -0.0029   1.01    7.8
2019/04/09 10:07:44.000   30.629912148  104.082083120   444.6878   1  17   0.0059   0.0046   0.0136  -0.0012   0.0053  -0.0029   1.01    9.1
2019/04/09 10:07:45.000   30.629912470  104.082097004   444.7126   1  17   0.0052   0.0045   0.0134  -0.0020   0.0050  -0.0034   1.01    4.7
2019/04/09 10:07:46.000   30.629912899  104.082110531   444.7126   1  17   0.0052   0.0045   0.0134  -0.0020   0.0050  -0.0034   1.01    8.5
2019/04/09 10:07:47.000   30.629913799  104.082123987   444.7156   1  17   0.0052   0.0045   0.0134  -0.0020   0.0050  -0.0034   1.01   11.2
2019/04/09 10:07:48.000   30.629914794  104.082137362   444.6942   1  17   0.0052   0.0045   0.0134  -0.0020   0.0050  -0.0034   1.01   12.9
2019/04/09 10:07:49.000   30.629916150  104.082150417   444.6903   1  18   0.0052   0.0052   0.0147  -0.0023   0.0064  -0.0039   1.01   14.7
2019/04/09 10:07:50.000   30.629918295  104.082164036   444.7049   1  18   0.0051   0.0046   0.0132  -0.0020   0.0050  -0.0033   1.01   16.8
2019/04/09 10:07:51.000   30.629920329  104.082177590   444.7184   1  19   0.0051   0.0041   0.0120  -0.0017   0.0037  -0.0029   1.01    5.0
2019/04/09 10:07:52.000   30.629922961  104.082190918   444.7232   1  19   0.0051   0.0040   0.0119  -0.0016   0.0036  -0.0028   1.01    6.1
2019/04/09 10:07:53.000   30.629926115  104.082203971   444.7328   1  19   0.0051   0.0039   0.0114  -0.0017   0.0031  -0.0028   1.01    6.9
2019/04/09 10:07:54.000   30.629929297  104.082216742   444.7035   1  18   0.0051   0.0040   0.0117  -0.0016   0.0034  -0.0027   1.01    7.8
2019/04/09 10:07:55.000   30.629931511  104.082230116   444.6847   1  18   0.0051   0.0040   0.0117  -0.0016   0.0033  -0.0027   1.01    8.1
2019/04/09 10:07:56.000   30.629934339  104.082243824   444.6702   1  19   0.0051   0.0039   0.0116  -0.0016   0.0033  -0.0027   1.01    8.6
2019/04/09 10:07:57.000   30.629939031  104.082256814   444.6410   1  18   0.0051   0.0044   0.0122  -0.0018   0.0043  -0.0029   1.01   27.3
2019/04/09 10:07:58.000   30.629944212  104.082269502   444.6494   1  18   0.0052   0.0048   0.0139  -0.0021   0.0056  -0.0036   1.01   28.7
2019/04/09 10:07:59.000   30.629948602  104.082282185   444.6686   1  18   0.0051   0.0044   0.0129  -0.0019   0.0047  -0.0032   1.01   30.1
2019/04/09 10:08:00.000   30.629953712  104.082294736   444.6782   1  18   0.0051   0.0043   0.0124  -0.0018   0.0043  -0.0030   1.01   31.5
2019/04/09 10:08:01.000   30.629959001  104.082307232   444.6768   1  18   0.0051   0.0042   0.0122  -0.0017   0.0040  -0.0029   1.01   32.7
2019/04/09 10:08:02.000   30.629963677  104.082320117   444.7019   1  18   0.0051   0.0045   0.0125  -0.0018   0.0046  -0.0030   1.01   34.3
2019/04/09 10:08:03.000   30.629969965  104.082331886   444.6796   1  18   0.0052   0.0048   0.0139  -0.0021   0.0056  -0.0036   1.01   35.7
2019/04/09 10:08:04.000   30.629976674  104.082343396   444.6527   1  18   0.0052   0.0045   0.0129  -0.0021   0.0048  -0.0035   1.01   37.2
2019/04/09 10:08:05.000   30.629983511  104.082354870   444.6464   1  18   0.0052   0.0044   0.0125  -0.0020   0.0044  -0.0035   1.01   38.4
2019/04/09 10:08:06.000   30.629989446  104.082366569   444.6532   1  16   0.0052   0.0052   0.0147  -0.0023   0.0064  -0.0039   1.01   40.0
2019/04/09 10:08:07.000   30.629995749  104.082378131   444.6549   1  18   0.0052   0.0052   0.0147  -0.0023   0.0064  -0.0039   1.01   42.4
2019/04/09 10:08:08.000   30.630002290  104.082389932   444.6513   1  17   0.0052   0.0048   0.0140  -0.0022   0.0057  -0.0036   1.01   43.3
2019/04/09 10:08:09.000   30.630009126  104.082402267   444.6414   1  18   0.0052   0.0047   0.0137  -0.0021   0.0054  -0.0035   1.01   44.9
2019/04/09 10:08:10.000   30.630016966  104.082413532   444.6778   1  18   0.0054   0.0046   0.0135  -0.0022   0.0049  -0.0036   2.01   46.4
2019/04/09 10:08:11.000   30.630025136  104.082424264   444.6716   1  17   0.0054   0.0048   0.0144  -0.0022   0.0055  -0.0036   2.01   47.7
2019/04/09 10:08:12.000   30.630033669  104.082434528   444.6800   1  18   0.0052   0.0045   0.0135  -0.0020   0.0051  -0.0035   1.01   49.5
2019/04/09 10:08:13.000   30.630042875  104.082443859   444.6534   1  18   0.0053   0.0057   0.0157  -0.0017   0.0073  -0.0030   1.01   48.5
2019/04/09 10:08:14.000   30.630052158  104.082452366   444.6297   1  17   0.0052   0.0051   0.0145  -0.0018   0.0062  -0.0032   1.01   50.1
2019/04/09 10:08:15.000   30.630061433  104.082460893   444.6012   1  18   0.0052   0.0045   0.0134  -0.0018   0.0050  -0.0031   1.01    4.7
2019/04/09 10:08:16.000   30.630070837  104.082469577   444.5914   1  18   0.0052   0.0042   0.0126  -0.0018   0.0043  -0.0032   1.01    6.1
2019/04/09 10:08:17.000   30.630080442  104.082478095   444.6182   1  17   0.0052   0.0044   0.0133  -0.0019   0.0049  -0.0032   1.01    7.1
2019/04/09 10:08:18.000   30.630089886  104.082486178   444.6201   1  18   0.0052   0.0044   0.0133  -0.0019   0.0049  -0.0033   1.01    8.1
2019/04/09 10:08:19.000   30.630099812  104.082493621   444.6235   1  18   0.0052   0.0042   0.0125  -0.0019   0.0042  -0.0032   1.01    9.2
2019/04/09 10:08:20.000   30.630110082  104.082500654   444.6753   1  19   0.0052   0.0044   0.0132  -0.0019   0.0048  -0.0034   1.01    3.4
2019/04/09 10:08:21.000   30.630120204  104.082507795   444.6766   1  18   0.0051   0.0041   0.0123  -0.0017   0.0040  -0.0030   1.01    5.9
2019/04/09 10:08:22.000   30.630130279  104.082514492   444.6770   1  19   0.0051   0.0041   0.0120  -0.0017   0.0037  -0.0028   1.01    8.3
2019/04/09 10:08:23.000   30.630140479  104.082520378   444.6755   1  18   0.0051   0.0040   0.0119  -0.0016   0.0036  -0.0028   1.01   10.4
2019/04/09 10:08:24.000   30.630150708  104.082526676   444.6671   1  18   0.0053   0.0041   0.0120  -0.0012   0.0038  -0.0021   1.01   15.1
2019/04/09 10:08:25.000   30.630161777  104.082532114   444.6427   1  18   0.0052   0.0040   0.0118  -0.0014   0.0036  -0.0024   1.01   16.3
2019/04/09 10:08:26.000   30.630172992  104.082536747   444.6393   1  18   0.0053   0.0041   0.0118  -0.0011   0.0036  -0.0021   1.01   17.6
2019/04/09 10:08:27.000   30.630183962  104.082541869   444.6194   1  18   0.0053   0.0041   0.0118  -0.0011   0.0036  -0.0021   1.01   19.0
2019/04/09 10:08:28.000   30.630194636  104.082548209   444.6491   1  18   0.0052   0.0045   0.0135  -0.0017   0.0051  -0.0030   1.01   20.2
2019/04/09 10:08:29.000   30.630205206  104.082554508   444.6573   1  18   0.0053   0.0043   0.0126  -0.0013   0.0044  -0.0023   1.01   21.2
2019/04/09 10:08:30.000   30.630216000  104.082560252   444.6570   1  18   0.0052   0.0039   0.0114  -0.0013   0.0032  -0.0023   1.01    4.2
2019/04/09 10:08:31.000   30.630227003  104.082565552   444.6574   1  18   0.0052   0.0039   0.0114  -0.0014   0.0031  -0.0024   1.01    5.3
2019/04/09 10:08:32.000   30.630237980  104.082570492   444.6302   1  18   0.0069   0.0040   0.0115   0.0015   0.0033  -0.0014   1.01    6.3
2019/04/09 10:08:33.000   30.630249094  104.082575743   444.6324   1  18   0.0067   0.0040   0.0114   0.0010   0.0032  -0.0021   1.01    7.3
2019/04/09 10:08:34.000   30.630259972  104.082580424   444.6194   1  18   0.0060   0.0039   0.0114  -0.0007   0.0031  -0.0022   1.01    8.5
2019/04/09 10:08:35.000   30.630270648  104.082585082   444.6053   1  18   0.0057   0.0039   0.0114  -0.0010   0.0031  -0.0023   1.01    9.5
2019/04/09 10:08:36.000   30.630281615  104.082589555   444.6048   1  18   0.0056   0.0039   0.0114  -0.0011   0.0031  -0.0023   1.01   10.6
2019/04/09 10:08:37.000   30.630292621  104.082593355   444.6231   1  18   0.0055   0.0039   0.0114  -0.0012   0.0031  -0.0024   1.01   11.5
2019/04/09 10:08:38.000   30.630303047  104.082598465   444.6444   1  18   0.0054   0.0039   0.0114  -0.0013   0.0031  -0.0024   1.01   12.4
2019/04/09 10:08:39.000   30.630313586  104.082604006   444.6562   1  18   0.0056   0.0040   0.0115  -0.0008   0.0033  -0.0019   1.01   13.2
2019/04/09 10:08:40.000   30.630324271  104.082609705   444.6299   1  18   0.0054   0.0039   0.0114  -0.0011   0.0032  -0.0022   1.01   14.1
2019/04/09 10:08:41.000   30.630335017  104.082614927   444.6131   1  18   0.0053   0.0039   0.0113  -0.0014   0.0030  -0.0025   1.01    6.9
2019/04/09 10:08:42.000   30.630345416  104.082620396   444.6078   1  18   0.0055   0.0040   0.0115  -0.0009   0.0033  -0.0019   1.01   15.6
2019/04/09 10:08:43.000   30.630356070  104.082625883   444.6183   1  18   0.0067   0.0040   0.0114   0.0010   0.0032  -0.0021   1.01   16.6
2019/04/09 10:08:44.000   30.630366794  104.082631039   444.6332   1  18   0.0060   0.0039   0.0114  -0.0007   0.0031  -0.0022   1.01   17.5
2019/04/09 10:08:45.000   30.630377588  104.082635750   444.6658   1  18   0.0057   0.0039   0.0114  -0.0010   0.0031  -0.0023   1.01   17.9
2019/04/09 10:08:46.000   30.630388165  104.082640952   444.6694   1  17   0.0069   0.0040   0.0115   0.0015   0.0033  -0.0013   1.01   18.8
2019/04/09 10:08:47.000   30.630398875  104.082645928   444.6536   1  18   0.0067   0.0040   0.0114   0.0010   0.0032  -0.0020   1.01   19.3
2019/04/09 10:08:48.000   30.630409590  104.082650463   444.6313   1  18   0.0062   0.0040   0.0115   0.0007   0.0033  -0.0017   1.01   20.2
2019/04/09 10:08:49.000   30.630419929  104.082655702   444.6287   1  18   0.0059   0.0040   0.0115  -0.0002   0.0033  -0.0018   1.01   21.0
2019/04/09 10:08:50.000   30.630430792  104.082661099   444.5962   1  18   0.0057   0.0039   0.0114  -0.0009   0.0032  -0.0021   1.01   21.6
2019/04/09 10:08:51.000   30.630441665  104.082666715   444.5872   1  17   0.0057   0.0041   0.0117  -0.0017   0.0025  -0.0012   1.01   23.7
2019/04/09 10:08:52.000   30.630452891  104.082671527   444.5925   1  17   0.0058   0.0041   0.0119  -0.0015   0.0027   0.0008   1.01   24.4
2019/04/09 10:08:53.000   30.630464153  104.082676369   444.6216   1  17   0.0056   0.0041   0.0118  -0.0017   0.0026  -0.0011   1.01   24.9
2019/04/09 10:08:54.000   30.630474999  104.082681694   444.6275   1  18   0.0056   0.0041   0.0117  -0.0017   0.0025  -0.0013   1.01   25.6
2019/04/09 10:08:55.000   30.630486093  104.082686843   444.6192   1  18   0.0067   0.0040   0.0116  -0.0008   0.0028  -0.0017   1.01   26.2
2019/04/09 10:08:56.000   30.630497646  104.082690884   444.6249   1  18   0.0060   0.0040   0.0115  -0.0012   0.0029  -0.0019   1.01   26.9
2019/04/09 10:08:57.000   30.630508838  104.082695247   444.6308   1  18   0.0052   0.0039   0.0115  -0.0016   0.0029  -0.0022   1.01    4.2
2019/04/09 10:08:58.000   30.630519800  104.082700028   444.6245   1  18   0.0053   0.0040   0.0116  -0.0012   0.0032  -0.0018   1.01    5.3
2019/04/09 10:08:59.000   30.630529859  104.082705410   444.6176   1  18   0.0052   0.0040   0.0115  -0.0014   0.0031  -0.0021   1.01    6.1
2019/04/09 10:09:00.000   30.630540424  104.082710424   444.6150   1  18   0.0053   0.0041   0.0117  -0.0018   0.0025  -0.0015   1.01    7.1
2019/04/09 10:09:01.000   30.630551455  104.082715265   444.6299   1  18   0.0052   0.0040   0.0115  -0.0017   0.0028  -0.0020   1.01    8.0
2019/04/09 10:09:02.000   30.630562511  104.082720321   444.6564   1  18   0.0052   0.0039   0.0114  -0.0014   0.0031  -0.0024   1.01    5.5
2019/04/09 10:09:03.000   30.630573436  104.082725645   444.6319   1  18   0.0051   0.0039   0.0114  -0.0014   0.0031  -0.0024   1.01    7.3
2019/04/09 10:09:04.000   30.630584604  104.082730564   444.6122   1  18   0.0051   0.0039   0.0113  -0.0015   0.0030  -0.0025   1.01    8.2
2019/04/09 10:09:05.000   30.630595955  104.082735133   444.5975   1  18   0.0051   0.0039   0.0113  -0.0015   0.0030  -0.0025   1.01    9.7
2019/04/09 10:09:06.000   30.630606544  104.082740192   444.6061   1  18   0.0051   0.0039   0.0113  -0.0015   0.0030  -0.0025   1.01   10.9
2019/04/09 10:09:07.000   30.630617264  104.082744586   444.5740   1  18   0.0051   0.0039   0.0113  -0.0015   0.0030  -0.0025   1.01   11.9
2019/04/09 10:09:08.000   30.630628218  104.082749409   444.5892   1  18   0.0051   0.0039   0.0113  -0.0015   0.0030  -0.0025   1.01   12.3
2019/04/09 10:09:09.000   30.630638259  104.082755420   444.6010   1  18   0.0069   0.0040   0.0115   0.0015   0.0033  -0.0012   1.01   18.6
2019/04/09 10:09:10.000   30.630648917  104.082762035   444.6296   1  18   0.0061   0.0040   0.0114   0.0002   0.0032  -0.0020   1.01   20.2
2019/04/09 10:09:11.000   30.630657685  104.082768184   444.6336   1  18   0.0058   0.0039   0.0114  -0.0009   0.0032  -0.0022   1.01   22.7
2019/04/09 10:09:12.000   30.630667443  104.082773891   444.6425   1  18   0.0058   0.0040   0.0115  -0.0005   0.0033  -0.0018   1.01   24.7
2019/04/09 10:09:13.000   30.630678008  104.082778468   444.6173   1  18   0.0056   0.0039   0.0114  -0.0010   0.0032  -0.0021   1.01   26.3
2019/04/09 10:09:14.000   30.630688576  104.082783229   444.6336   1  18   0.0055   0.0039   0.0114  -0.0011   0.0031  -0.0023   1.01   28.4
2019/04/09 10:09:15.000   30.630699084  104.082788196   444.6380   1  18   0.0054   0.0039   0.0114  -0.0012   0.0031  -0.0023   1.01   30.2
2019/04/09 10:09:16.000   30.630709371  104.082794169   444.6272   1  18   0.0055   0.0040   0.0115  -0.0008   0.0033  -0.0019   1.01   32.1
2019/04/09 10:09:17.000   30.630719598  104.082800216   444.6272   1  18   0.0054   0.0039   0.0114  -0.0011   0.0032  -0.0022   1.01   33.8
2019/04/09 10:09:18.000   30.630730496  104.082804939   444.6085   1  18   0.0054   0.0039   0.0114  -0.0012   0.0031  -0.0023   1.01   35.5
2019/04/09 10:09:19.000   30.630741422  104.082809070   444.5870   1  18   0.0066   0.0040   0.0114   0.0007   0.0031  -0.0022   1.01   37.5
2019/04/09 10:09:20.000   30.630752790  104.082813122   444.5752   1  18   0.0059   0.0039   0.0114  -0.0009   0.0031  -0.0023   1.01   38.9
2019/04/09 10:09:21.000   30.630764067  104.082818123   444.5887   1  18   0.0052   0.0039   0.0114  -0.0014   0.0031  -0.0024   1.01    4.5
2019/04/09 10:09:22.000   30.630775493  104.082822947   444.5957   1  18   0.0051   0.0039   0.0113  -0.0014   0.0031  -0.0024   1.01    5.5
2019/04/09 10:09:23.000   30.630786657  104.082827585   444.6246   1  18   0.0053   0.0040   0.0115  -0.0011   0.0033  -0.0019   1.01    6.2
2019/04/09 10:09:24.000   30.630797908  104.082832252   444.6285   1  18   0.0052   0.0039   0.0114  -0.0013   0.0032  -0.0022   1.01    7.2
2019/04/09 10:09:25.000   30.630809195  104.082836577   444.6395   1  18   0.0051   0.0039   0.0113  -0.0015   0.0031  -0.0025   1.01    5.5
2019/04/09 10:09:26.000   30.630820498  104.082841480   444.6040   1  18   0.0051   0.0039   0.0113  -0.0015   0.0031  -0.0025   1.01    6.9
2019/04/09 10:09:27.000   30.630831587  104.082847384   444.6090   1  18   0.0051   0.0039   0.0113  -0.0015   0.0031  -0.0025   1.01    8.0
2019/04/09 10:09:28.000   30.630842065  104.082853061   444.6356   1  18   0.0051   0.0039   0.0113  -0.0015   0.0031  -0.0025   1.01    8.8
2019/04/09 10:09:29.000   30.630852120  104.082859235   444.6510   1  18   0.0051   0.0039   0.0113  -0.0015   0.0031  -0.0025   1.01    9.8
2019/04/09 10:09:30.000   30.630863171  104.082862901   444.6875   1  19   0.0051   0.0039   0.0113  -0.0015   0.0031  -0.0025   1.01   11.2
2019/04/09 10:09:31.000   30.630873730  104.082866254   444.6906   1  19   0.0053   0.0039   0.0110  -0.0012   0.0028  -0.0022   1.01   12.4
2019/04/09 10:09:32.000   30.630885143  104.082870299   444.7667   1  19   0.0056   0.0038   0.0108  -0.0017   0.0026  -0.0026   1.01   14.9
2019/04/09 10:09:33.000   30.630896780  104.082873822   444.7673   1  19   0.0054   0.0038   0.0107  -0.0016   0.0024  -0.0026   1.01   15.9
2019/04/09 10:09:34.000   30.630908822  104.082876372   444.7136   1  19   0.0053   0.0039   0.0114  -0.0015   0.0031  -0.0024   1.01   16.7
2019/04/09 10:09:35.000   30.630918781  104.082877321   444.7035   1  19   0.0053   0.0038   0.0109  -0.0015   0.0026  -0.0025   1.01   17.5
2019/04/09 10:09:36.000   30.630928196  104.082877974   444.6599   1  19   0.0052   0.0038   0.0108  -0.0016   0.0025  -0.0026   1.01   17.9
2019/04/09 10:09:37.000   30.630939054  104.082879221   444.6653   1  19   0.0052   0.0038   0.0107  -0.0016   0.0024  -0.0026   1.01   18.5
2019/04/09 10:09:38.000   30.630950909  104.082881139   444.6576   1  19   0.0053   0.0038   0.0107  -0.0013   0.0024  -0.0024   1.01   18.9
2019/04/09 10:09:39.000   30.630962648  104.082883114   444.6763   1  19   0.0056   0.0038   0.0107  -0.0018   0.0024  -0.0027   1.01   19.3
2019/04/09 10:09:40.000   30.630974314  104.082884664   444.6908   1  19   0.0053   0.0039   0.0113  -0.0017   0.0031  -0.0026   1.01    6.6
2019/04/09 10:09:41.000   30.630986325  104.082885593   444.6750   1  19   0.0051   0.0038   0.0109  -0.0015   0.0026  -0.0026   1.01    6.4
2019/04/09 10:09:42.000   30.630998343  104.082885857   444.6794   1  19   0.0051   0.0038   0.0108  -0.0016   0.0024  -0.0026   1.01    8.3
2019/04/09 10:09:43.000   30.631010332  104.082885546   444.6634   1  19   0.0051   0.0037   0.0107  -0.0016   0.0023  -0.0026   1.01   10.3
2019/04/09 10:09:44.000   30.631022181  104.082884452   444.6527   1  19   0.0051   0.0037   0.0106  -0.0016   0.0023  -0.0027   1.01   12.1
2019/04/09 10:09:45.000   30.631034172  104.082882674   444.6193   1  19   0.0051   0.0037   0.0106  -0.0016   0.0022  -0.0027   1.01   13.8
2019/04/09 10:09:46.000   30.631046585  104.082881016   444.6270   1  19   0.0051   0.0039   0.0113  -0.0015   0.0031  -0.0025   1.01   15.6
2019/04/09 10:09:47.000   30.631058838  104.082878608   444.6237   1  19   0.0051   0.0038   0.0109  -0.0015   0.0026  -0.0026   1.01   17.5
2019/04/09 10:09:48.000   30.631070994  104.082876668   444.6434   1  19   0.0054   0.0038   0.0108  -0.0019   0.0025  -0.0028   1.01   19.7
2019/04/09 10:09:49.000   30.631083350  104.082874784   444.6692   1  19   0.0053   0.0038   0.0107  -0.0017   0.0024  -0.0027   1.01   21.3
2019/04/09 10:09:50.000   30.631095420  104.082871877   444.6581   1  19   0.0052   0.0037   0.0105  -0.0017   0.0021  -0.0028   1.01    5.0
2019/04/09 10:09:51.000   30.631107322  104.082869037   444.6521   1  19   0.0052   0.0037   0.0105  -0.0017   0.0021  -0.0027   1.01    5.7
2019/04/09 10:09:52.000   30.631119133  104.082865637   444.6724   1  19   0.0052   0.0037   0.0105  -0.0017   0.0020  -0.0027   1.01    6.5
2019/04/09 10:09:53.000   30.631130540  104.082861431   444.6559   1  19   0.0052   0.0037   0.0105  -0.0016   0.0020  -0.0027   1.01    7.4
2019/04/09 10:09:54.000   30.631140704  104.082855341   444.6881   1  19   0.0052   0.0037   0.0105  -0.0016   0.0020  -0.0027   1.01    8.4
2019/04/09 10:09:55.000   30.631151423  104.082849879   444.6597   1  19   0.0054   0.0037   0.0105  -0.0019   0.0021  -0.0029   1.01    9.3
2019/04/09 10:09:56.000   30.631162665  104.082845061   444.6532   1  19   0.0053   0.0037   0.0105  -0.0018   0.0021  -0.0028   1.01   10.2
2019/04/09 10:09:57.000   30.631173483  104.082840237   444.6243   1  19   0.0051   0.0037   0.0105  -0.0016   0.0020  -0.0027   1.01    6.7
2019/04/09 10:09:58.000   30.631184326  104.082833920   444.6232   1  19   0.0051   0.0037   0.0105  -0.0016   0.0020  -0.0027   1.01    8.6
2019/04/09 10:09:59.000   30.631195543  104.082827519   444.6029   1  19   0.0051   0.0037   0.0105  -0.0016   0.0020  -0.0027   1.01   10.4
2019/04/09 10:10:00.000   30.631206218  104.082821090   444.6191   1  19   0.0051   0.0037   0.0105  -0.0016   0.0020  -0.0027   1.01   12.3
2019/04/09 10:10:01.000   30.631216362  104.082813906   444.6357   1  19   0.0051   0.0037   0.0105  -0.0016   0.0020  -0.0027   1.01   13.9
2019/04/09 10:10:02.000   30.631226139  104.082805899   444.6610   1  19   0.0051   0.0037   0.0105  -0.0016   0.0020  -0.0027   1.01   14.7
2019/04/09 10:10:03.000   30.631235932  104.082797357   444.6421   1  19   0.0051   0.0037   0.0105  -0.0016   0.0020  -0.0027   1.01   15.3
2019/04/09 10:10:04.000   30.631246194  104.082789345   444.6492   1  19   0.0051   0.0037   0.0105  -0.0016   0.0020  -0.0027   1.01   15.7
2019/04/09 10:10:05.000   30.631256004  104.082780424   444.6326   1  18   0.0053   0.0038   0.0108  -0.0013   0.0015  -0.0032   1.01   20.5
2019/04/09 10:10:06.000   30.631265603  104.082771006   444.6065   1  19   0.0053   0.0038   0.0108  -0.0013   0.0015  -0.0032   1.01   22.0
2019/04/09 10:10:07.000   30.631274470  104.082760865   444.5924   1  19   0.0052   0.0037   0.0106  -0.0015   0.0018  -0.0030   1.01   23.3
2019/04/09 10:10:08.000   30.631282944  104.082750426   444.5926   1  18   0.0053   0.0038   0.0108  -0.0013   0.0015  -0.0032   1.01   24.4
2019/04/09 10:10:09.000   30.631291593  104.082740012   444.5848   1  18   0.0053   0.0038   0.0108  -0.0013   0.0015  -0.0032   1.01   25.7
2019/04/09 10:10:10.000   30.631300305  104.082729988   444.6043   1  18   0.0053   0.0038   0.0108  -0.0013   0.0015  -0.0032   1.01   26.8
2019/04/09 10:10:11.000   30.631308453  104.082718982   444.5889   1  18   0.0053   0.0038   0.0108  -0.0013   0.0015  -0.0032   1.01   28.2
2019/04/09 10:10:12.000   30.631316248  104.082707805   444.6014   1  18   0.0053   0.0038   0.0108  -0.0013   0.0015  -0.0032   1.01   29.7
2019/04/09 10:10:13.000   30.631323015  104.082696561   444.6358   1  18   0.0053   0.0040   0.0111  -0.0018  -0.0011  -0.0028   1.01   31.2
2019/04/09 10:10:14.000   30.631329418  104.082685750   444.6417   1  18   0.0053   0.0039   0.0109  -0.0016   0.0008  -0.0030   1.01   32.7
2019/04/09 10:10:15.000   30.631336438  104.082675365   444.6274   1  18   0.0053   0.0038   0.0109  -0.0015   0.0011  -0.0031   1.01   33.6
2019/04/09 10:10:16.000   30.631343936  104.082665486   444.6467   1  18   0.0053   0.0038   0.0109  -0.0014   0.0012  -0.0031   1.01   34.7
2019/04/09 10:10:17.000   30.631350988  104.082654971   444.6264   1  18   0.0053   0.0038   0.0108  -0.0014   0.0013  -0.0031   1.01   36.2
2019/04/09 10:10:18.000   30.631357852  104.082644688   444.6069   1  18   0.0053   0.0038   0.0108  -0.0014   0.0013  -0.0032   1.01   37.6
2019/04/09 10:10:19.000   30.631364663  104.082634879   444.6218   1  18   0.0053   0.0038   0.0108  -0.0014   0.0014  -0.0032   1.01   38.4
2019/04/09 10:10:20.000   30.631370883  104.082624538   444.6474   1  18   0.0053   0.0040   0.0111  -0.0018  -0.0011  -0.0028   1.01   39.3
2019/04/09 10:10:21.000   30.631375007  104.082611914   444.7047   1  18   0.0053   0.0039   0.0109  -0.0016   0.0008  -0.0030   1.01   39.9
2019/04/09 10:10:22.000   30.631377598  104.082598263   444.7117   1  18   0.0053   0.0040   0.0111  -0.0018  -0.0011  -0.0028   1.01   40.7
2019/04/09 10:10:23.000   30.631380136  104.082584895   444.7259   1  18   0.0053   0.0039   0.0109  -0.0016   0.0008  -0.0030   1.01   41.7
2019/04/09 10:10:24.000   30.631383703  104.082572499   444.6750   1  18   0.0053   0.0040   0.0111  -0.0018  -0.0011  -0.0028   1.01   42.8
2019/04/09 10:10:25.000   30.631387412  104.082559575   444.6604   1  18   0.0053   0.0039   0.0109  -0.0016   0.0008  -0.0030   1.01   43.7
2019/04/09 10:10:26.000   30.631390662  104.082546326   444.6498   1  18   0.0053   0.0040   0.0111  -0.0018  -0.0011  -0.0028   1.01   45.0
2019/04/09 10:10:27.000   30.631394242  104.082533567   444.6433   1  18   0.0053   0.0040   0.0111  -0.0018  -0.0011  -0.0028   1.01   46.1
2019/04/09 10:10:28.000   30.631397376  104.082520365   444.6482   1  18   0.0053   0.0040   0.0111  -0.0018  -0.0011  -0.0028   1.01   47.0
2019/04/09 10:10:29.000   30.631400587  104.082507612   444.6521   1  18   0.0053   0.0039   0.0109  -0.0015   0.0008  -0.0030   1.01   48.0
2019/04/09 10:10:30.000   30.631403195  104.082494447   444.6501   1  18   0.0053   0.0038   0.0109  -0.0015   0.0011  -0.0031   1.01   49.5
2019/04/09 10:10:31.000   30.631405256  104.082480874   444.6601   1  18   0.0053   0.0040   0.0111  -0.0018  -0.0011  -0.0028   1.01   51.0
2019/04/09 10:10:32.000   30.631406658  104.082467753   444.6463   1  18   0.0053   0.0039   0.0109  -0.0015   0.0008  -0.0030   1.01   53.1
2019/04/09 10:10:33.000   30.631408094  104.082454860   444.6219   1  18   0.0053   0.0038   0.0109  -0.0015   0.0011  -0.0031   1.01   54.9
